City_ID,City,Country,Date,Lat,Lng,Max Temp,Humidity,Cloudiness,Wind Speed,Current Weather,Rain Inches (last 3 hrs),Snow Inches (last 3 hrs)
0,Ushuaia,AR,2020-04-04 19:26:32,-54.8,-68.3,46.4,86,75,13.87,broken clouds,0.0,0.0
1,Rikitea,PF,2020-04-04 19:26:33,-23.12,-134.97,76.55,79,26,15.84,light rain,0.007480314960629922,0.0
2,Bathsheba,BB,2020-04-04 19:26:33,13.22,-59.52,84.2,66,20,11.41,few clouds,0.0,0.0
3,Punta Arenas,CL,2020-04-04 19:26:34,-53.15,-70.92,44.6,81,75,28.86,light intensity shower rain,0.0,0.0
4,Albany,US,2020-04-04 19:26:35,42.6,-73.97,61.0,48,75,3.36,broken clouds,0.0,0.0
5,Cabo San Lucas,MX,2020-04-04 19:26:35,22.89,-109.91,82.99,39,75,9.17,broken clouds,0.0,0.0
6,Basco,PH,2020-04-04 19:26:36,20.45,121.97,75.99,84,35,23.42,light rain,0.020078740157480318,0.0
7,Saint-Leu,RE,2020-04-04 19:26:37,-21.15,55.28,77.0,78,36,11.41,light rain,0.010236220472440946,0.0
8,Busselton,AU,2020-04-04 19:26:38,-33.65,115.33,63.0,34,100,13.44,overcast clouds,0.0,0.0
9,Kununurra,AU,2020-04-04 19:26:38,-15.77,128.73,78.8,94,0,3.36,clear sky,0.0,0.0
10,Bacum,MX,2020-04-04 19:26:39,27.55,-110.08,71.6,49,75,2.24,broken clouds,0.0,0.0
11,Grindavik,IS,2020-04-04 19:26:40,63.84,-22.43,28.4,85,90,31.09,light snow,0.0,0.0
12,Vaini,TO,2020-04-04 19:26:40,-21.2,-175.2,77.0,78,75,6.93,broken clouds,0.0,0.0
13,Fairbanks,US,2020-04-04 19:26:41,64.84,-147.72,32.0,92,90,4.7,light snow,0.0,0.0
14,Pangnirtung,CA,2020-04-04 19:26:41,66.15,-65.71,5.0,65,20,4.7,few clouds,0.0,0.0
15,East London,ZA,2020-04-04 19:22:04,-33.02,27.91,77.49,67,33,12.68,scattered clouds,0.0,0.0
16,Solnechnyy,RU,2020-04-04 19:26:43,50.72,136.63,21.07,94,35,5.14,scattered clouds,0.0,0.0
17,Mar Del Plata,AR,2020-04-04 19:23:13,-38.0,-57.56,73.4,56,5,13.87,clear sky,0.0,0.0
18,Victoria,HK,2020-04-04 19:25:02,22.29,114.16,66.99,93,40,11.41,moderate rain,0.0,0.0
19,Fredericksburg,US,2020-04-04 19:26:45,38.3,-77.46,62.6,62,90,5.82,overcast clouds,0.0,0.0
20,Teguise,ES,2020-04-04 19:26:46,29.06,-13.56,71.6,68,20,11.41,few clouds,0.0,0.0
21,Callaway,US,2020-04-04 19:26:47,30.15,-85.57,84.2,44,40,13.87,scattered clouds,0.0,0.0
22,Cape Town,ZA,2020-04-04 19:25:31,-33.93,18.42,64.0,87,98,4.7,overcast clouds,0.0,0.0
23,Port Alfred,ZA,2020-04-04 19:26:48,-33.59,26.89,76.95,61,0,12.55,clear sky,0.0,0.0
24,Butaritari,KI,2020-04-04 19:26:48,3.07,172.79,82.6,80,65,9.57,light rain,0.02598425196850394,0.0
25,Severo-Kurilsk,RU,2020-04-04 19:26:49,50.68,156.12,26.06,91,13,12.91,few clouds,0.0,0.0
26,Hermanus,ZA,2020-04-04 19:26:49,-34.42,19.23,64.99,92,97,8.43,overcast clouds,0.0,0.0
27,Thompson,CA,2020-04-04 19:26:50,55.74,-97.86,19.4,79,90,10.29,light snow,0.0,0.0
28,Dunda,TZ,2020-04-04 19:26:50,-8.12,34.25,66.58,61,2,2.15,clear sky,0.0,0.0
29,Esperance,AU,2020-04-04 19:26:51,-33.87,121.9,48.2,93,32,5.82,scattered clouds,0.0,0.0
30,Lebu,CL,2020-04-04 19:26:52,-37.62,-73.65,60.22,51,1,20.36,clear sky,0.0,0.0
31,Dourbali,TD,2020-04-04 19:26:53,11.81,15.86,97.41,10,78,6.53,broken clouds,0.0,0.0
32,Barrow,US,2020-04-04 19:26:54,71.29,-156.79,12.2,85,20,10.29,few clouds,0.0,0.0
33,Ban Tak,TH,2020-04-04 19:26:54,17.04,99.08,82.24,30,70,4.32,broken clouds,0.0,0.0
34,Husavik,IS,2020-04-04 19:26:55,66.04,-17.34,19.4,85,90,38.03,mist,0.0,0.0
35,Agadez,NE,2020-04-04 19:26:55,19.75,10.25,89.85,9,25,9.06,scattered clouds,0.0,0.0
36,Bayji,IQ,2020-04-04 19:26:56,34.93,43.49,65.3,39,3,5.61,clear sky,0.0,0.0
37,Khatanga,RU,2020-04-04 19:25:42,71.97,102.5,10.96,96,74,11.12,broken clouds,0.0,0.0
38,Namibe,AO,2020-04-04 19:26:57,-15.2,12.15,75.94,68,0,10.42,clear sky,0.0,0.0
39,Puerto Ayora,EC,2020-04-04 19:26:58,-0.74,-90.35,84.2,70,20,9.17,few clouds,0.0,0.0
40,Arlit,NE,2020-04-04 19:26:58,18.74,7.39,92.75,8,4,5.37,clear sky,0.0,0.0
41,Ascension,US,2020-04-04 19:26:59,30.22,-90.9,82.4,47,1,6.93,clear sky,0.0,0.0
42,Constitucion,CL,2020-04-04 19:26:59,-35.33,-72.42,66.92,54,11,12.8,few clouds,0.0,0.0
43,Bluff,NZ,2020-04-04 19:27:00,-46.6,168.33,50.0,85,60,1.99,broken clouds,0.0,0.0
44,Aklavik,CA,2020-04-04 19:27:00,68.22,-135.01,17.6,55,5,5.82,clear sky,0.0,0.0
45,Manakara,MG,2020-04-04 19:27:01,-22.13,48.02,72.45,86,91,7.96,light rain,0.04055118110236221,0.0
46,Osypenko,UA,2020-04-04 19:27:01,46.91,36.83,46.99,100,94,17.0,overcast clouds,0.0,0.0
47,Mendoza,AR,2020-04-04 19:22:16,-32.89,-68.83,77.0,33,18,4.7,few clouds,0.0,0.0
48,Ambagarh Chauki,IN,2020-04-04 19:27:03,20.78,80.72,82.02,42,55,3.49,light rain,0.005511811023622048,0.0
49,Bambous Virieux,MU,2020-04-04 19:27:03,-20.34,57.76,78.8,83,40,10.29,shower rain,0.0,0.0
50,Padang,ID,2020-04-04 19:26:00,-0.95,100.35,79.39,79,100,2.71,moderate rain,0.34330708661417325,0.0
51,Aksarka,RU,2020-04-04 19:27:04,66.56,67.8,35.6,86,88,18.59,overcast clouds,0.0,0.0
52,Kapaa,US,2020-04-04 19:27:05,22.08,-159.32,78.8,78,75,9.17,broken clouds,0.0,0.0
53,Puerto Escondido,MX,2020-04-04 19:27:06,15.85,-97.07,82.4,69,20,10.31,few clouds,0.0,0.0
54,Kahului,US,2020-04-04 19:27:06,20.89,-156.47,78.8,61,1,6.93,clear sky,0.0,0.0
55,Plettenberg Bay,ZA,2020-04-04 19:27:07,-34.05,23.37,69.94,61,21,6.98,few clouds,0.0,0.0
56,Goundam,ML,2020-04-04 19:27:07,16.41,-3.67,99.34,8,3,6.73,clear sky,0.0,0.0
57,Airai,TL,2020-04-04 19:27:08,-8.93,125.41,61.88,66,80,1.23,broken clouds,0.0,0.0
58,Krumbach,DE,2020-04-04 19:27:09,48.24,10.36,48.99,56,16,8.05,few clouds,0.0,0.0
59,Talnakh,RU,2020-04-04 19:25:28,69.49,88.4,32.0,97,75,29.08,shower snow,0.0,0.0
60,Kruisfontein,ZA,2020-04-04 19:27:10,-34.0,24.73,71.53,54,0,11.61,clear sky,0.0,0.0
61,Sydney,AU,2020-04-04 19:26:22,-33.87,151.21,57.99,62,0,8.05,clear sky,0.0,0.0
62,Agadir,MA,2020-04-04 19:26:21,30.42,-9.6,66.2,72,34,18.34,scattered clouds,0.0,0.0
63,Cidreira,BR,2020-04-04 19:27:11,-30.18,-50.21,73.15,58,23,10.98,few clouds,0.0,0.0
64,Vestmannaeyjar,IS,2020-04-04 19:27:12,63.44,-20.27,28.4,79,75,42.5,haze,0.0,0.0
65,Honiara,SB,2020-04-04 19:27:12,-9.43,159.95,77.0,83,40,6.93,scattered clouds,0.0,0.0
66,Mataura,NZ,2020-04-04 19:27:13,-46.19,168.86,50.0,85,64,1.99,broken clouds,0.0,0.0
67,Hay River,CA,2020-04-04 19:27:13,60.82,-115.8,-4.0,76,40,9.17,scattered clouds,0.0,0.0
68,Hervey Bay,AU,2020-04-04 19:27:14,-25.3,152.85,73.99,88,58,4.7,drizzle,0.0,0.0
69,Kulhudhuffushi,MV,2020-04-04 19:27:15,6.62,73.07,84.51,67,58,2.8,broken clouds,0.0,0.0
70,Polazna,RU,2020-04-04 19:27:15,58.29,56.41,33.8,90,54,8.95,broken clouds,0.0,0.0
71,Ladario,BR,2020-04-04 19:27:16,-19.0,-57.6,89.6,46,20,5.82,few clouds,0.0,0.0
72,Qasigiannguit,GL,2020-04-04 19:27:16,68.82,-51.19,12.2,56,5,13.87,clear sky,0.0,0.0
73,Kihei,US,2020-04-04 19:27:17,20.79,-156.47,78.8,61,1,6.93,clear sky,0.0,0.0
74,Cobija,BO,2020-04-04 19:27:17,-11.03,-68.77,83.82,69,97,3.76,light rain,0.10511811023622047,0.0
75,Mandali,IQ,2020-04-04 19:27:18,33.75,45.55,67.98,30,31,12.28,scattered clouds,0.0,0.0
76,Katsuura,JP,2020-04-04 19:27:18,35.13,140.3,57.0,71,20,5.82,few clouds,0.0,0.0
77,Souillac,MU,2020-04-04 19:27:19,-20.52,57.52,78.8,83,40,10.29,shower rain,0.0,0.0
78,Iqaluit,CA,2020-04-04 19:27:19,63.75,-68.51,-0.4,70,5,25.28,clear sky,0.0,0.0
79,Ankang,CN,2020-04-04 19:27:20,32.68,109.02,53.85,49,82,1.03,broken clouds,0.0,0.0
80,Miri,MY,2020-04-04 19:27:21,4.41,114.01,80.01,100,75,1.12,broken clouds,0.0,0.0
81,Hithadhoo,MV,2020-04-04 19:27:21,-0.6,73.08,83.82,74,43,10.54,moderate rain,0.15393700787401576,0.0
82,Seymchan,RU,2020-04-04 19:27:22,62.88,152.43,-2.09,86,74,3.8,broken clouds,0.0,0.0
83,Grand-Lahou,CI,2020-04-04 19:27:22,5.14,-5.02,83.97,78,47,8.46,scattered clouds,0.0,0.0
84,Vao,NC,2020-04-04 19:27:23,-22.67,167.48,77.5,80,77,21.14,broken clouds,0.0,0.0
85,Aykhal,RU,2020-04-04 19:27:23,66.0,111.5,6.8,65,30,6.71,scattered clouds,0.0,0.0
86,Chalchihuites,MX,2020-04-04 19:27:24,23.48,-103.88,74.43,8,94,18.79,overcast clouds,0.0,0.0
87,Mahebourg,MU,2020-04-04 19:27:24,-20.41,57.7,78.8,83,40,10.29,shower rain,0.0,0.0
88,San Patricio,MX,2020-04-04 19:27:25,19.22,-104.7,80.6,69,5,11.41,clear sky,0.0,0.0
89,Danilovka,RU,2020-04-04 19:27:26,50.36,44.12,47.93,50,1,8.21,clear sky,0.0,0.0
90,Riyadh,SA,2020-04-04 19:22:37,24.69,46.72,77.0,16,19,11.41,dust,0.0,0.0
91,Nouadhibou,MR,2020-04-04 19:27:27,20.93,-17.03,69.8,83,0,16.11,clear sky,0.0,0.0
92,Hofn,IS,2020-04-04 19:27:27,64.25,-15.21,24.51,94,100,37.47,snow,0.0,0.13897637795275591
93,Los Llanos De Aridane,ES,2020-04-04 19:27:28,28.66,-17.92,69.8,73,20,4.7,few clouds,0.0,0.0
94,Bud,US,2020-04-04 19:27:28,39.45,-86.18,71.01,76,1,6.93,clear sky,0.0,0.0
95,Richards Bay,ZA,2020-04-04 19:27:29,-28.78,32.04,69.82,82,100,16.2,light rain,0.007874015748031498,0.0
96,Alofi,NU,2020-04-04 19:27:29,-19.06,-169.92,77.0,94,100,3.36,light rain,0.03346456692913386,0.0
97,Wakkanai,JP,2020-04-04 19:27:30,45.41,141.67,37.33,96,100,7.92,light rain,0.09803149606299214,0.0
98,Hilo,US,2020-04-04 19:27:32,19.73,-155.09,80.6,65,40,6.51,scattered clouds,0.0,0.0
99,Torit,SS,2020-04-04 19:27:32,4.41,32.57,82.09,43,98,2.06,overcast clouds,0.0,0.0
100,Sumbe,AO,2020-04-04 19:27:33,-11.21,13.84,79.54,86,96,5.77,overcast clouds,0.0,0.0
101,Geraldton,AU,2020-04-04 19:27:33,-28.77,114.6,68.0,77,100,5.82,overcast clouds,0.0,0.0
102,Catalina,US,2020-04-04 19:27:34,32.51,-110.92,77.0,10,1,5.82,clear sky,0.0,0.0
103,Nikolskoye,RU,2020-04-04 19:27:34,59.7,30.79,33.8,50,26,6.71,scattered clouds,0.0,0.0
104,Toora-Khem,RU,2020-04-04 19:27:35,52.47,96.11,35.28,68,100,3.24,light rain,0.04921259842519685,0.0
105,Kodiak,US,2020-04-04 19:27:35,57.79,-152.41,50.0,27,90,10.89,overcast clouds,0.0,0.0
106,Atuona,PF,2020-04-04 19:27:36,-9.8,-139.03,82.35,75,85,17.76,light rain,0.005118110236220473,0.0
107,Saldanha,ZA,2020-04-04 19:27:36,-33.01,17.94,64.4,77,100,3.36,overcast clouds,0.0,0.0
108,Sitka,US,2020-04-04 19:27:37,57.05,-135.33,37.4,69,20,2.08,few clouds,0.0,0.0
109,New Norfolk,AU,2020-04-04 19:27:38,-42.78,147.06,44.6,65,46,4.7,light rain,0.013385826771653545,0.0
110,Arraial Do Cabo,BR,2020-04-04 19:27:38,-22.97,-42.03,78.8,69,1,17.22,clear sky,0.0,0.0
111,Mayor Pablo Lagerenza,PY,2020-04-04 19:27:39,-19.93,-60.77,91.44,27,37,5.91,scattered clouds,0.0,0.0
112,Saskylakh,RU,2020-04-04 19:27:40,71.92,114.08,1.04,90,64,13.15,broken clouds,0.0,0.0
113,Grand Bank,CA,2020-04-04 19:27:40,47.1,-55.77,37.4,59,75,8.05,broken clouds,0.0,0.0
114,Pundaguitan,PH,2020-04-04 19:27:41,6.37,126.17,80.42,78,0,12.33,clear sky,0.0,0.0
115,Tasiilaq,GL,2020-04-04 19:27:41,65.61,-37.64,17.6,40,53,20.8,broken clouds,0.0,0.0
116,San Cristobal,VE,2020-04-04 19:27:42,7.77,-72.22,89.6,55,40,13.87,smoke,0.0,0.0
117,Betong,TH,2020-04-04 19:27:43,5.77,101.07,72.5,84,20,2.28,few clouds,0.0,0.0
118,Komsomolskiy,UZ,2020-04-04 19:27:44,40.43,71.72,59.0,51,82,9.17,broken clouds,0.0,0.0
119,Ilulissat,GL,2020-04-04 19:27:44,69.22,-51.1,12.2,56,5,13.87,clear sky,0.0,0.0
120,Asmar,AF,2020-04-04 19:27:45,35.03,71.36,59.76,27,67,6.11,broken clouds,0.0,0.0
121,Mnogovershinnyy,RU,2020-04-04 19:27:46,53.94,139.92,13.71,94,14,2.93,few clouds,0.0,0.0
122,Sidi Ali,DZ,2020-04-04 19:27:46,36.1,0.42,62.28,55,83,14.09,broken clouds,0.0,0.0
123,Coquimbo,CL,2020-04-04 19:26:49,-29.95,-71.34,62.6,77,75,10.29,broken clouds,0.0,0.0
124,Rongcheng,CN,2020-04-04 19:27:47,30.63,117.85,50.07,85,38,4.38,scattered clouds,0.0,0.0
125,Broken Hill,AU,2020-04-04 19:27:48,-31.95,141.43,51.8,76,2,6.93,clear sky,0.0,0.0
126,Carlagan,PH,2020-04-04 19:27:49,14.97,122.05,78.6,73,29,8.72,scattered clouds,0.0,0.0
127,San Vicente,AR,2020-04-04 19:27:49,-26.62,-54.13,81.73,23,7,1.97,clear sky,0.0,0.0
128,Kushnarenkovo,RU,2020-04-04 19:27:50,55.1,55.35,32.0,100,40,6.71,fog,0.0,0.0
129,Banda Aceh,ID,2020-04-04 19:27:50,5.56,95.32,80.46,81,96,7.31,overcast clouds,0.0,0.0
130,Wilmington,US,2020-04-04 19:25:45,34.23,-77.94,72.0,28,1,11.41,clear sky,0.0,0.0
131,Uong Bi,VN,2020-04-04 19:27:52,21.03,106.78,68.0,82,89,3.36,light rain,0.022440944881889763,0.0
132,Caiaponia,BR,2020-04-04 19:27:52,-16.96,-51.81,82.92,57,39,4.03,light rain,0.02716535433070866,0.0
133,Pisco,PE,2020-04-04 19:27:54,-13.7,-76.22,75.99,30,6,9.17,clear sky,0.0,0.0
134,Johi,PK,2020-04-04 19:27:54,26.69,67.61,87.67,19,2,6.4,clear sky,0.0,0.0
135,Rabo De Peixe,PT,2020-04-04 19:27:55,37.8,-25.58,62.6,77,40,20.8,scattered clouds,0.0,0.0
136,Portland,US,2020-04-04 19:24:04,45.52,-122.68,53.6,57,40,3.36,scattered clouds,0.0,0.0
137,Carnarvon,AU,2020-04-04 19:27:56,-24.87,113.63,75.2,78,100,13.87,overcast clouds,0.0,0.0
138,Rio Tercero,AR,2020-04-04 19:27:56,-32.17,-64.11,78.1,37,0,8.5,clear sky,0.0,0.0
139,Hami,CN,2020-04-04 19:27:57,42.8,93.45,53.56,23,84,4.76,broken clouds,0.0,0.0
140,Ponta Do Sol,PT,2020-04-04 19:27:58,32.67,-17.1,68.0,72,20,18.34,few clouds,0.0,0.0
141,Lagoa,PT,2020-04-04 19:27:59,39.05,-27.98,58.98,76,39,23.02,light rain,0.02795275590551181,0.0
142,Ancud,CL,2020-04-04 19:28:00,-41.87,-73.82,55.4,71,40,5.82,scattered clouds,0.0,0.0
143,Mount Gambier,AU,2020-04-04 19:28:00,-37.83,140.77,55.4,87,90,20.8,overcast clouds,0.0,0.0
144,Filadelfia,US,2020-04-04 19:24:53,39.95,-75.16,57.99,66,90,4.7,overcast clouds,0.0,0.0
145,Anan,JP,2020-04-04 19:28:01,33.92,134.65,48.99,76,75,9.17,broken clouds,0.0,0.0
146,Qaanaaq,GL,2020-04-04 19:28:02,77.48,-69.36,11.7,81,87,6.67,overcast clouds,0.0,0.0
147,Nome,US,2020-04-04 19:28:02,64.5,-165.41,33.8,100,90,14.99,light rain,0.0,0.0
148,Awjilah,LY,2020-04-04 19:28:03,29.11,21.29,66.63,45,0,20.18,clear sky,0.0,0.0
149,Muros,ES,2020-04-04 19:28:04,42.78,-9.06,64.99,67,100,6.93,overcast clouds,0.0,0.0
150,Shakawe,BW,2020-04-04 19:28:04,-18.37,21.85,69.39,57,50,2.48,light rain,0.006299212598425198,0.0
151,Warrnambool,AU,2020-04-04 19:28:05,-38.38,142.48,53.01,90,85,31.63,light rain,0.021259842519685043,0.0
152,Faanui,PF,2020-04-04 19:28:06,-16.48,-151.75,83.05,74,30,9.69,light rain,0.004724409448818898,0.0
153,Kodinsk,RU,2020-04-04 19:25:13,58.69,99.18,26.1,94,0,1.99,clear sky,0.0,0.0
154,Nuuk,GL,2020-04-04 19:28:07,64.18,-51.72,24.8,53,5,19.46,clear sky,0.0,0.0
155,Sioux Falls,US,2020-04-04 19:28:07,43.55,-96.7,42.01,55,20,12.75,few clouds,0.0,0.0
156,Marrakesh,MA,2020-04-04 19:23:40,31.63,-8.01,73.4,31,40,4.7,scattered clouds,0.0,0.0
157,Port Lincoln,AU,2020-04-04 19:28:09,-34.73,135.87,59.22,69,33,18.5,scattered clouds,0.0,0.0
158,Upernavik,GL,2020-04-04 19:28:09,72.79,-56.15,17.83,77,5,15.41,clear sky,0.0,0.0
159,Boundiali,CI,2020-04-04 19:28:10,9.52,-6.49,96.66,26,57,3.27,broken clouds,0.0,0.0
160,Moron,AR,2020-04-04 19:28:10,-34.65,-58.62,79.0,44,0,9.17,clear sky,0.0,0.0
161,Roebourne,AU,2020-04-04 19:28:11,-20.78,117.13,80.96,74,66,5.66,broken clouds,0.0,0.0
162,Saint-Philippe,RE,2020-04-04 19:28:11,-21.36,55.77,77.0,78,12,11.41,light rain,0.015748031496062995,0.0
163,Hasaki,JP,2020-04-04 19:28:12,35.73,140.83,57.2,76,40,3.36,scattered clouds,0.0,0.0
164,Cascais,PT,2020-04-04 19:26:15,38.7,-9.42,63.0,77,20,13.87,few clouds,0.0,0.0
165,Georgetown,MY,2020-04-04 19:28:13,5.41,100.34,84.0,88,40,4.7,scattered clouds,0.0,0.0
166,Bethel,US,2020-04-04 19:28:13,41.37,-73.41,59.0,50,20,4.7,few clouds,0.0,0.0
167,Yellowknife,CA,2020-04-04 19:28:14,62.46,-114.35,12.2,47,20,9.17,few clouds,0.0,0.0
168,Havelock,US,2020-04-04 19:28:14,34.88,-76.9,72.0,35,40,10.29,scattered clouds,0.0,0.0
169,Flinders,AU,2020-04-04 19:28:15,-34.58,150.86,57.2,58,0,13.87,clear sky,0.0,0.0
170,Chokurdakh,RU,2020-04-04 19:28:16,70.63,147.92,-7.42,88,1,8.95,clear sky,0.0,0.0
171,Bredasdorp,ZA,2020-04-04 19:28:17,-34.53,20.04,66.2,77,100,10.29,overcast clouds,0.0,0.0
172,Castro,BR,2020-04-04 19:27:31,-24.79,-50.01,74.64,29,0,4.07,clear sky,0.0,0.0
173,Chuy,UY,2020-04-04 19:28:18,-33.7,-53.46,73.18,48,2,2.93,clear sky,0.0,0.0
174,Altayskoye,RU,2020-04-04 19:28:18,51.95,85.33,35.42,84,99,1.52,overcast clouds,0.0,0.0
175,Stromness,GB,2020-04-04 19:28:19,58.97,-3.3,46.4,87,100,10.29,light rain,0.004724409448818898,0.0
176,High Level,CA,2020-04-04 19:28:19,58.52,-117.14,17.6,48,40,6.93,scattered clouds,0.0,0.0
177,Penicuik,GB,2020-04-04 19:28:20,55.83,-3.22,50.0,66,40,8.05,scattered clouds,0.0,0.0
178,Yulara,AU,2020-04-04 19:28:21,-25.24,130.99,57.2,41,35,6.93,scattered clouds,0.0,0.0
179,Dingle,PH,2020-04-04 19:28:21,11.0,122.67,77.49,81,2,9.6,light rain,0.005118110236220473,0.0
180,Saint-Francois,FR,2020-04-04 19:28:22,46.42,3.91,53.6,50,9,8.05,clear sky,0.0,0.0
181,El Alto,PE,2020-04-04 19:28:22,-4.27,-81.21,62.6,100,49,10.29,scattered clouds,0.0,0.0
182,Provideniya,RU,2020-04-04 19:25:32,64.38,-173.3,15.33,94,100,16.31,snow,0.0,0.06929133858267716
183,Saint Anthony,US,2020-04-04 19:28:23,45.02,-93.22,42.01,35,1,3.36,clear sky,0.0,0.0
184,Marathon,US,2020-04-04 19:28:24,44.9,-89.77,44.01,44,1,6.93,clear sky,0.0,0.0
185,Huai Thalaeng,TH,2020-04-04 19:28:24,15.0,102.65,88.07,47,83,5.66,broken clouds,0.0,0.0
186,Puerto Carreno,CO,2020-04-04 19:28:25,6.19,-67.49,84.2,66,75,7.29,thunderstorm,0.0,0.0
187,Nishihara,JP,2020-04-04 19:28:25,26.18,127.76,66.2,77,90,5.82,mist,0.0,0.0
188,Lucea,JM,2020-04-04 19:28:26,18.45,-78.17,84.99,70,20,16.11,few clouds,0.0,0.0
189,Kharp,RU,2020-04-04 19:28:26,66.8,65.81,35.33,88,100,8.95,light rain,0.03622047244094489,0.0
190,Chapais,CA,2020-04-04 19:28:27,49.78,-74.85,46.4,49,1,8.05,clear sky,0.0,0.0
191,Walvis Bay,NA,2020-04-04 19:28:28,-22.96,14.51,62.01,87,0,3.36,clear sky,0.0,0.0
192,Kavieng,PG,2020-04-04 19:28:28,-2.57,150.8,80.28,79,99,5.26,overcast clouds,0.0,0.0
193,Phuket,TH,2020-04-04 19:25:25,8.0,98.25,77.0,94,40,6.42,scattered clouds,0.0,0.0
194,Margate,GB,2020-04-04 19:25:01,51.38,1.39,54.0,87,13,10.29,few clouds,0.0,0.0
195,La Palma,US,2020-04-04 19:28:30,33.85,-118.05,66.99,55,90,4.7,overcast clouds,0.0,0.0
196,Kavaratti,IN,2020-04-04 19:24:08,10.57,72.64,84.04,70,1,6.11,clear sky,0.0,0.0
197,Juneau,US,2020-04-04 19:28:31,58.3,-134.42,35.6,64,20,8.05,few clouds,0.0,0.0
198,Severomuysk,RU,2020-04-04 19:28:32,56.15,113.43,14.32,84,88,6.42,light snow,0.0,0.015748031496062995
199,Schlitz,DE,2020-04-04 19:23:33,50.67,9.56,50.0,49,3,2.24,clear sky,0.0,0.0
200,Cherskiy,RU,2020-04-04 19:28:33,68.75,161.3,-12.01,90,100,4.72,overcast clouds,0.0,0.0
201,Am Timan,TD,2020-04-04 19:28:33,11.03,20.28,92.98,15,97,3.42,overcast clouds,0.0,0.0
202,Labuhan,ID,2020-04-04 19:28:34,-6.88,112.21,77.52,90,93,7.09,light rain,0.10866141732283464,0.0
203,Pascagoula,US,2020-04-04 19:28:35,30.37,-88.56,78.8,44,1,5.82,clear sky,0.0,0.0
204,Taoudenni,ML,2020-04-04 19:28:36,22.68,-3.98,95.05,9,0,8.43,clear sky,0.0,0.0
205,Batsfjord,NO,2020-04-04 19:28:36,70.63,29.72,25.83,90,100,24.58,light snow,0.0,0.022047244094488192
206,Shimanovsk,RU,2020-04-04 19:28:37,52.0,127.7,20.93,87,0,0.49,clear sky,0.0,0.0
207,Comodoro Rivadavia,AR,2020-04-04 19:24:18,-45.87,-67.5,66.2,29,0,17.22,clear sky,0.0,0.0
208,Jamestown,US,2020-04-04 19:28:38,42.1,-79.24,55.99,54,90,5.82,overcast clouds,0.0,0.0
209,Nevel,RU,2020-04-04 19:28:38,56.02,29.93,37.27,70,74,6.11,light snow,0.0,0.01299212598425197
210,Maragogi,BR,2020-04-04 19:26:49,-9.01,-35.22,85.32,71,84,11.48,light rain,0.0452755905511811,0.0
211,Pevek,RU,2020-04-04 19:26:58,69.7,170.31,-4.94,92,100,8.95,light snow,0.0,0.007086614173228346
212,Klaksvik,FO,2020-04-04 19:28:40,62.23,-6.59,39.2,93,100,21.92,light rain,0.030708661417322838,0.0
213,Hobart,AU,2020-04-04 19:28:40,-42.88,147.33,44.6,65,56,4.7,light rain,0.007086614173228346,0.0
214,Tual,ID,2020-04-04 19:28:41,-5.67,132.75,83.32,77,96,10.58,moderate rain,0.1362204724409449,0.0
215,Port Elizabeth,ZA,2020-04-04 19:26:14,-33.92,25.57,73.4,64,4,20.8,clear sky,0.0,0.0
216,Dikson,RU,2020-04-04 19:28:42,73.51,80.55,0.54,94,8,7.29,clear sky,0.0,0.0
217,La Rioja,ES,2020-04-04 19:28:43,42.25,-2.5,57.2,58,11,10.29,few clouds,0.0,0.0
218,Hirara,JP,2020-04-04 19:25:29,24.8,125.28,68.41,83,93,22.68,light rain,0.007874015748031498,0.0
219,Nanortalik,GL,2020-04-04 19:28:44,60.14,-45.24,31.05,89,100,8.5,light snow,0.0,0.005511811023622048
220,Narsaq,GL,2020-04-04 19:28:44,60.92,-46.05,33.8,34,75,18.34,broken clouds,0.0,0.0
221,Zyryanka,RU,2020-04-04 19:28:45,65.75,150.85,-5.89,90,5,6.78,clear sky,0.0,0.0
222,Te Anau,NZ,2020-04-04 19:28:45,-45.42,167.72,50.02,72,56,2.64,broken clouds,0.0,0.0
223,Kidodi,TZ,2020-04-04 19:28:46,-7.6,37.0,72.86,76,3,1.54,clear sky,0.0,0.0
224,Namtsy,RU,2020-04-04 19:28:47,62.72,129.67,26.6,73,40,6.71,scattered clouds,0.0,0.0
225,Nueva Armenia,HN,2020-04-04 19:28:48,15.8,-86.5,86.07,56,10,6.24,clear sky,0.0,0.0
226,Harper,LR,2020-04-04 19:28:48,4.38,-7.72,84.79,72,31,5.99,scattered clouds,0.0,0.0
227,Avarua,CK,2020-04-04 19:28:49,-21.21,-159.78,78.8,94,90,14.99,overcast clouds,0.0,0.0
228,Hambantota,LK,2020-04-04 19:27:32,6.12,81.12,77.0,100,20,2.24,few clouds,0.0,0.0
229,Waipawa,NZ,2020-04-04 19:28:50,-41.41,175.52,51.8,81,2,6.93,clear sky,0.0,0.0
230,Mantua,IT,2020-04-04 19:28:50,45.17,10.78,57.99,50,32,2.24,scattered clouds,0.0,0.0
231,Vila Franca Do Campo,PT,2020-04-04 19:28:51,37.72,-25.43,62.6,77,40,20.8,scattered clouds,0.0,0.0
232,Codrington,AU,2020-04-04 19:28:52,-38.27,141.97,56.07,78,83,32.08,light rain,0.03188976377952756,0.0
233,Kaabong,UG,2020-04-04 19:28:52,3.48,34.15,74.1,37,59,9.91,broken clouds,0.0,0.0
234,Cooma,AU,2020-04-04 19:28:54,-36.23,149.13,44.6,56,90,17.22,overcast clouds,0.0,0.0
235,Urumqi,CN,2020-04-04 19:28:54,43.8,87.6,53.6,16,99,8.95,overcast clouds,0.0,0.0
236,Williams Lake,CA,2020-04-04 19:28:55,52.14,-122.14,23.0,35,75,5.82,broken clouds,0.0,0.0
237,Otofuke,JP,2020-04-04 19:28:55,42.99,143.2,43.14,90,100,3.65,moderate rain,0.1236220472440945,0.0
238,Sao Joao Da Ponte,BR,2020-04-04 19:28:56,-15.93,-44.01,81.57,65,65,4.9,moderate rain,0.14881889763779527,0.0
239,Ahipara,NZ,2020-04-04 19:28:57,-35.17,173.17,62.24,82,15,12.73,light rain,0.006692913385826772,0.0
240,Lavrentiya,RU,2020-04-04 19:28:57,65.58,-171.0,13.48,95,100,7.61,snow,0.0,0.08818897637795277
241,Nagapattinam,IN,2020-04-04 19:28:58,10.77,79.83,82.85,82,0,14.09,clear sky,0.0,0.0
242,Severo-Yeniseyskiy,RU,2020-04-04 19:28:58,60.37,93.04,17.69,94,8,4.74,clear sky,0.0,0.0
243,Waingapu,ID,2020-04-04 19:29:00,-9.66,120.26,79.18,78,0,2.68,clear sky,0.0,0.0
244,Egvekinot,RU,2020-04-04 19:29:00,66.32,-179.17,-1.17,88,100,17.29,light snow,0.0,0.009448818897637795
245,Urengoy,RU,2020-04-04 19:29:01,65.97,78.37,34.5,89,99,21.68,overcast clouds,0.0,0.0
246,Batagay,RU,2020-04-04 19:29:01,67.63,134.63,10.47,89,100,6.35,overcast clouds,0.0,0.0
247,Hamilton,US,2020-04-04 19:29:02,39.18,-84.53,73.0,37,1,4.7,clear sky,0.0,0.0
248,Baykit,RU,2020-04-04 19:29:03,61.67,96.37,23.36,94,15,5.55,few clouds,0.0,0.0
249,Zeya,RU,2020-04-04 19:29:03,53.75,127.27,14.18,88,2,1.59,clear sky,0.0,0.0
250,Roma,US,2020-04-04 19:27:07,43.21,-75.46,55.4,62,90,5.82,overcast clouds,0.0,0.0
251,Port-Gentil,GA,2020-04-04 19:29:05,-0.72,8.78,76.59,84,100,7.14,moderate rain,0.1811023622047244,0.0
252,Kysyl-Syr,RU,2020-04-04 19:29:05,63.9,122.76,16.56,93,95,12.62,overcast clouds,0.0,0.0
253,Puri,IN,2020-04-04 19:29:06,19.8,85.85,78.8,94,20,2.24,mist,0.0,0.0
254,Vardo,NO,2020-04-04 19:29:06,70.37,31.11,29.35,94,99,32.79,snow,0.0,0.08307086614173229
255,Omidiyeh,IR,2020-04-04 19:24:38,30.76,49.7,75.2,33,0,12.71,clear sky,0.0,0.0
256,Uarini,BR,2020-04-04 19:29:08,-2.99,-65.11,89.6,75,40,3.36,scattered clouds,0.0,0.0
257,Cabedelo,BR,2020-04-04 19:29:08,-6.98,-34.83,86.0,74,20,10.29,few clouds,0.0,0.0
258,Saint George,US,2020-04-04 19:29:09,37.1,-113.58,66.99,29,1,4.7,clear sky,0.0,0.0
259,Clyde River,CA,2020-04-04 19:29:09,70.47,-68.59,10.4,72,20,26.4,few clouds,0.0,0.0
260,Tabunok,PH,2020-04-04 19:29:10,10.78,124.01,78.8,78,40,5.82,scattered clouds,0.0,0.0
261,Amapa,BR,2020-04-04 19:29:10,1.0,-52.0,86.23,67,92,5.08,light rain,0.10826771653543307,0.0
262,Inta,RU,2020-04-04 19:29:11,66.03,60.17,33.94,91,71,18.23,light snow,0.0,0.005511811023622048
263,Kaeo,NZ,2020-04-04 19:29:12,-35.1,173.78,63.0,90,17,1.99,light rain,0.00826771653543307,0.0
264,Xining,CN,2020-04-04 19:29:13,36.62,101.77,35.76,31,99,0.76,light snow,0.0,0.004330708661417323
265,Corinto,GR,2020-04-04 19:29:14,37.94,22.96,55.0,76,90,18.34,moderate rain,0.0,0.0
266,Paamiut,GL,2020-04-04 19:29:14,61.99,-49.67,22.93,87,66,4.09,broken clouds,0.0,0.0
267,Tak,TH,2020-04-04 19:29:15,16.58,98.83,72.75,33,84,2.98,broken clouds,0.0,0.0
268,Kibala,TD,2020-04-04 19:29:16,9.11,18.35,95.0,39,100,3.65,overcast clouds,0.0,0.0
269,Kefamenanu,ID,2020-04-04 19:29:16,-9.45,124.48,71.2,82,7,1.5,clear sky,0.0,0.0
270,Bourges,FR,2020-04-04 19:29:17,47.25,2.42,60.8,46,0,5.82,clear sky,0.0,0.0
271,Mgachi,RU,2020-04-04 19:29:18,51.05,142.27,25.36,93,91,4.03,overcast clouds,0.0,0.0
272,Port Blair,IN,2020-04-04 19:29:18,11.67,92.75,82.56,71,0,4.76,clear sky,0.0,0.0
273,San Roque,ES,2020-04-04 19:29:19,36.21,-5.38,60.8,82,100,20.8,light rain,0.019291338582677165,0.0
274,Santa Lucia,ES,2020-04-04 19:29:19,27.91,-15.54,69.8,83,40,3.36,scattered clouds,0.0,0.0
275,Pilar,BR,2020-04-04 19:29:20,-9.6,-35.96,86.0,74,40,12.75,scattered clouds,0.0,0.0
276,Sao Filipe,CV,2020-04-04 19:29:20,14.9,-24.5,74.35,74,0,19.86,clear sky,0.0,0.0
277,Mehamn,NO,2020-04-04 19:27:52,71.04,27.85,27.77,88,100,24.54,light snow,0.0,0.006299212598425198
278,Bengkulu,ID,2020-04-04 19:29:22,-3.8,102.27,78.62,84,100,3.74,moderate rain,0.462992125984252,0.0
279,Guerrero Negro,MX,2020-04-04 19:29:22,27.98,-114.06,63.34,59,96,14.74,overcast clouds,0.0,0.0
280,Port Hawkesbury,CA,2020-04-04 19:29:23,45.62,-61.35,37.99,64,90,5.82,overcast clouds,0.0,0.0
281,Akdepe,TM,2020-04-04 19:29:24,42.06,59.38,53.6,71,33,6.93,scattered clouds,0.0,0.0
282,Torbay,CA,2020-04-04 19:29:25,47.67,-52.73,33.01,86,90,12.75,overcast clouds,0.0,0.0
283,Abalak,RU,2020-04-04 19:29:25,58.13,68.59,37.83,89,100,12.28,light rain,0.05472440944881889,0.0
284,Baturaja,ID,2020-04-04 19:29:26,-4.13,104.17,75.94,93,100,2.17,light rain,0.046850393700787404,0.0
285,College,US,2020-04-04 19:29:26,64.86,-147.8,32.0,92,90,3.36,light snow,0.0,0.0
286,Lasa,IT,2020-04-04 19:29:27,46.62,10.7,59.0,33,13,5.82,few clouds,0.0,0.0
287,Berasia,IN,2020-04-04 19:29:27,23.63,77.43,77.0,31,0,10.29,clear sky,0.0,0.0
288,Konevo,RU,2020-04-04 19:29:28,62.12,39.32,28.65,93,81,8.19,light snow,0.0,0.009448818897637795
289,Narasapur,IN,2020-04-04 19:29:28,16.45,81.67,76.26,89,1,4.45,clear sky,0.0,0.0
290,Koraput,IN,2020-04-04 19:29:29,18.82,82.72,74.55,40,5,2.59,clear sky,0.0,0.0
291,Chippewa Falls,US,2020-04-04 19:29:30,44.94,-91.39,37.4,55,1,5.82,clear sky,0.0,0.0
292,Mercedes,AR,2020-04-04 19:29:30,-34.65,-59.43,79.0,45,0,3.0,clear sky,0.0,0.0
293,Saint Stephen,GB,2020-04-04 19:29:31,50.33,-4.9,54.0,66,0,23.04,clear sky,0.0,0.0
294,Yuzhnyy,RU,2020-04-04 19:29:31,53.25,83.69,32.0,96,20,4.47,few clouds,0.0,0.0
295,Sibu,MY,2020-04-04 19:29:32,2.3,111.82,78.8,94,75,1.79,broken clouds,0.0,0.0
296,Gushikawa,JP,2020-04-04 19:29:32,26.35,127.87,66.2,88,90,5.82,overcast clouds,0.0,0.0
297,Kisangani,CD,2020-04-04 19:29:33,0.52,25.2,80.17,65,50,1.05,scattered clouds,0.0,0.0
298,Colares,PT,2020-04-04 19:29:09,38.8,-9.45,63.0,77,20,13.87,few clouds,0.0,0.0
299,Hoquiam,US,2020-04-04 19:29:34,46.98,-123.89,48.99,49,1,3.36,clear sky,0.0,0.0
300,Piacabucu,BR,2020-04-04 19:29:34,-10.41,-36.43,86.31,73,91,11.63,overcast clouds,0.0,0.0
301,Yelizovo,RU,2020-04-04 19:27:57,53.19,158.38,17.6,67,85,8.95,overcast clouds,0.0,0.0
302,Fairfield,US,2020-04-04 19:29:36,41.27,-73.32,59.0,50,20,4.7,few clouds,0.0,0.0
303,Hauterive,FR,2020-04-04 19:29:37,46.09,3.45,57.2,47,3,4.7,clear sky,0.0,0.0
304,Bonthe,SL,2020-04-04 19:29:37,7.53,-12.51,86.27,68,54,8.19,broken clouds,0.0,0.0
305,Boissevain,CA,2020-04-04 19:29:38,49.23,-100.06,25.0,62,1,16.11,clear sky,0.0,0.0
306,Belmonte,BR,2020-04-04 19:29:38,-15.86,-38.88,80.6,88,75,6.93,broken clouds,0.0,0.0
307,Antsohihy,MG,2020-04-04 19:29:39,-14.88,47.99,74.8,88,38,1.01,light rain,0.0562992125984252,0.0
308,Yeppoon,AU,2020-04-04 19:29:39,-23.13,150.73,77.0,78,90,3.06,overcast clouds,0.0,0.0
309,Lerwick,GB,2020-04-04 19:29:40,60.15,-1.15,44.6,93,100,3.36,light rain,0.021653543307086617,0.0
310,Khuzhir,RU,2020-04-04 19:29:40,53.19,107.34,32.74,75,85,7.87,overcast clouds,0.0,0.0
311,Aldan,RU,2020-04-04 19:29:41,58.6,125.39,23.77,92,100,6.89,snow,0.0,0.12480314960629922
312,Batagay-Alyta,RU,2020-04-04 19:29:42,67.8,130.41,8.71,85,99,1.19,overcast clouds,0.0,0.0
313,Gao,ML,2020-04-04 19:29:42,16.64,1.64,98.04,8,33,9.22,scattered clouds,0.0,0.0
314,Haines Junction,CA,2020-04-04 19:29:43,60.75,-137.51,23.52,83,17,1.88,few clouds,0.0,0.0
315,Touros,BR,2020-04-04 19:29:43,-5.2,-35.46,84.2,79,40,11.41,scattered clouds,0.0,0.0
316,Bereda,ES,2020-04-04 19:29:44,43.27,-7.54,64.0,59,78,10.29,broken clouds,0.0,0.0
317,Mount Isa,AU,2020-04-04 19:29:44,-20.73,139.5,68.0,32,0,16.11,clear sky,0.0,0.0
318,Ustka,PL,2020-04-04 19:29:45,54.58,16.86,39.24,81,0,7.38,clear sky,0.0,0.0
319,West Wendover,US,2020-04-04 19:29:46,40.74,-114.07,48.2,24,1,5.82,clear sky,0.0,0.0
320,Ribeira Grande,PT,2020-04-04 19:29:46,38.52,-28.7,60.8,72,20,20.8,few clouds,0.0,0.0
321,Port-Cartier,CA,2020-04-04 19:29:47,50.03,-66.87,33.8,86,90,8.05,overcast clouds,0.0,0.0
322,Oussouye,SN,2020-04-04 19:29:48,12.48,-16.55,86.0,83,14,9.17,few clouds,0.0,0.0
323,Jacareacanga,BR,2020-04-04 19:29:48,-6.22,-57.75,88.29,65,82,3.78,moderate rain,0.12952755905511812,0.0
324,Ambon,ID,2020-04-04 19:29:49,-3.7,128.18,81.45,77,100,6.46,light rain,0.02598425196850394,0.0
325,Ukiah,US,2020-04-04 19:29:49,39.15,-123.21,54.0,93,90,11.41,moderate rain,0.0,0.0
326,Boca Do Acre,BR,2020-04-04 19:29:50,-8.75,-67.4,92.44,50,82,2.04,light rain,0.08188976377952757,0.0
327,Poum,NC,2020-04-04 19:29:51,-20.23,164.02,79.61,81,97,20.65,overcast clouds,0.0,0.0
328,Lumphat,KH,2020-04-04 19:29:51,13.49,106.98,75.56,70,3,6.17,clear sky,0.0,0.0
329,Abu Zabad,SD,2020-04-04 19:29:52,12.35,29.25,84.94,9,29,9.44,scattered clouds,0.0,0.0
330,Acari,PE,2020-04-04 19:29:52,-15.43,-74.62,80.91,49,53,8.84,broken clouds,0.0,0.0
331,Ossora,RU,2020-04-04 19:29:53,59.24,163.07,2.16,84,0,5.77,clear sky,0.0,0.0
332,Andenes,NO,2020-04-04 19:29:53,69.31,16.12,26.6,53,100,16.11,light snow,0.0,0.02283464566929134
333,Koumac,NC,2020-04-04 19:29:54,-20.57,164.28,76.96,84,99,9.51,overcast clouds,0.0,0.0
334,Zarubino,RU,2020-04-04 19:29:54,42.63,131.09,35.47,75,56,26.82,broken clouds,0.0,0.0
335,Faya,SA,2020-04-04 19:29:56,18.39,42.45,66.2,55,28,5.44,light rain,0.01968503937007874,0.0
336,Rudbar,AF,2020-04-04 19:29:57,30.15,62.6,78.24,14,0,8.1,clear sky,0.0,0.0
337,Miles City,US,2020-04-04 19:28:11,46.41,-105.84,48.2,34,75,13.87,broken clouds,0.0,0.0
338,Oranjestad,AW,2020-04-04 19:27:44,12.52,-70.03,86.0,74,75,19.46,broken clouds,0.0,0.0
339,Vitim,RU,2020-04-04 19:29:58,59.45,112.56,19.62,94,65,6.11,broken clouds,0.0,0.0
340,Eureka,US,2020-04-04 19:29:59,40.8,-124.16,53.6,81,90,6.93,overcast clouds,0.0,0.0
341,Kondol,RU,2020-04-04 19:29:59,52.82,45.06,51.01,26,75,6.58,light rain,0.004724409448818898,0.0
342,Peace River,CA,2020-04-04 19:30:00,56.25,-117.29,14.0,61,90,4.38,overcast clouds,0.0,0.0
343,Mbocayaty,PY,2020-04-04 19:30:01,-25.7,-56.4,78.71,31,36,2.91,scattered clouds,0.0,0.0
344,Lata,PT,2020-04-04 19:30:01,40.16,-8.33,64.0,63,40,13.87,scattered clouds,0.0,0.0
345,Auki,SB,2020-04-04 19:30:02,-8.77,160.7,82.29,74,81,19.24,broken clouds,0.0,0.0
346,Atasu,KZ,2020-04-04 19:30:03,48.68,71.64,45.34,61,76,12.17,broken clouds,0.0,0.0
347,Karratha,AU,2020-04-04 19:30:04,-20.74,116.85,79.86,72,37,0.74,scattered clouds,0.0,0.0
348,Blackfoot,US,2020-04-04 19:30:05,43.19,-112.34,50.0,21,1,8.05,clear sky,0.0,0.0
349,Zalesovo,RU,2020-04-04 19:30:06,53.99,84.74,28.54,95,0,5.93,clear sky,0.0,0.0
350,Tiksi,RU,2020-04-04 19:30:07,71.69,128.87,11.84,95,100,6.6,light snow,0.0,0.004724409448818898
351,Kangaatsiaq,GL,2020-04-04 19:30:08,68.31,-53.46,17.46,84,0,25.43,clear sky,0.0,0.0
352,Leh,IN,2020-04-04 19:30:10,34.17,77.58,14.04,27,8,4.16,clear sky,0.0,0.0
353,Tshikapa,CD,2020-04-04 19:30:11,-6.42,20.8,72.64,73,98,1.16,overcast clouds,0.0,0.0
354,Blackwater,AU,2020-04-04 19:30:11,-23.58,148.88,67.71,57,0,10.76,clear sky,0.0,0.0
355,Berezovyy,RU,2020-04-04 19:30:12,51.67,135.7,21.96,91,2,1.83,clear sky,0.0,0.0
356,Terbuny,RU,2020-04-04 19:30:12,52.14,38.28,37.85,68,8,7.87,clear sky,0.0,0.0
357,Najran,SA,2020-04-04 19:30:13,17.49,44.13,84.2,32,20,14.99,few clouds,0.0,0.0
358,Hobyo,SO,2020-04-04 19:30:14,5.35,48.53,83.07,73,90,15.32,overcast clouds,0.0,0.0
359,Carnot,CF,2020-04-04 19:30:14,4.94,15.87,75.07,69,0,1.97,clear sky,0.0,0.0
360,Deputatskiy,RU,2020-04-04 19:30:15,69.3,139.9,0.03,84,100,2.77,overcast clouds,0.0,0.0
361,Oistins,BB,2020-04-04 19:30:15,13.07,-59.53,84.2,66,20,11.41,few clouds,0.0,0.0
362,Yomou,GN,2020-04-04 19:30:16,7.56,-9.27,74.75,81,59,1.48,moderate rain,0.20039370078740157,0.0
363,Tres Arroyos,AR,2020-04-04 19:25:28,-38.37,-60.28,70.3,48,4,12.46,clear sky,0.0,0.0
364,Praia Da Vitoria,PT,2020-04-04 19:30:17,38.73,-27.07,64.4,88,20,18.59,few clouds,0.0,0.0
365,Ixtapa,MX,2020-04-04 19:30:18,20.7,-105.2,82.4,54,20,12.75,few clouds,0.0,0.0
366,Freeport,US,2020-04-04 19:30:18,40.66,-73.58,60.8,47,1,9.17,clear sky,0.0,0.0
367,Yenagoa,NG,2020-04-04 19:30:19,4.92,6.26,77.85,88,100,6.38,overcast clouds,0.0,0.0
368,Tuktoyaktuk,CA,2020-04-04 19:30:19,69.45,-133.04,3.2,71,20,10.29,few clouds,0.0,0.0
369,Bilibino,RU,2020-04-04 19:30:20,68.05,166.44,-9.22,83,99,1.63,overcast clouds,0.0,0.0
370,Leningradskiy,RU,2020-04-04 19:30:21,69.38,178.42,-0.63,89,100,17.63,overcast clouds,0.0,0.0
371,Labuan,MY,2020-04-04 19:30:21,5.28,115.24,82.4,88,75,3.36,broken clouds,0.0,0.0
372,Gornopravdinsk,RU,2020-04-04 19:30:22,60.05,69.9,35.92,91,100,10.0,light rain,0.03385826771653543,0.0
373,Curup,ID,2020-04-04 19:30:23,-3.47,102.53,69.4,79,100,1.1,moderate rain,0.36141732283464567,0.0
374,Dongsheng,CN,2020-04-04 19:30:24,39.82,109.98,44.85,29,100,12.08,overcast clouds,0.0,0.0
375,Isangel,VU,2020-04-04 19:30:24,-19.55,169.27,77.0,94,90,18.72,overcast clouds,0.0,0.0
376,Merrill,US,2020-04-04 19:30:25,45.18,-89.68,42.8,44,1,5.82,clear sky,0.0,0.0
377,Caravelas,BR,2020-04-04 19:30:26,-17.71,-39.25,79.77,80,99,14.76,overcast clouds,0.0,0.0
378,Puerto Cabezas,NI,2020-04-04 19:30:26,14.04,-83.39,86.0,70,40,4.7,haze,0.0,0.0
379,Norman Wells,CA,2020-04-04 19:30:27,65.28,-126.83,12.2,72,90,12.75,light snow,0.0,0.0
380,Yar-Sale,RU,2020-04-04 19:30:27,66.83,70.83,34.03,90,99,20.78,overcast clouds,0.0,0.0
381,Lompoc,US,2020-04-04 19:30:28,34.64,-120.46,64.0,67,0,9.17,clear sky,0.0,0.0
382,Kaitangata,NZ,2020-04-04 19:30:28,-46.28,169.85,54.0,87,62,1.99,broken clouds,0.0,0.0
383,Marsa Matruh,EG,2020-04-04 19:30:29,31.35,27.25,77.0,29,89,13.87,overcast clouds,0.0,0.0
384,Mattru,SL,2020-04-04 19:30:30,7.62,-11.83,81.7,78,3,5.08,light rain,0.007086614173228346,0.0
385,Roald,NO,2020-04-04 19:30:30,62.58,6.13,37.0,74,100,6.93,overcast clouds,0.0,0.0
386,Florence,IT,2020-04-04 19:28:09,43.77,11.25,59.0,33,0,5.82,clear sky,0.0,0.0
387,Otuzco,PE,2020-04-04 19:30:31,-7.9,-78.58,75.2,73,88,10.29,light rain,0.07125984251968505,0.0
388,Pendleton,US,2020-04-04 19:30:32,45.67,-118.79,53.6,34,1,3.36,clear sky,0.0,0.0
389,Petatlan,MX,2020-04-04 19:30:32,17.52,-101.27,87.8,62,5,14.99,clear sky,0.0,0.0
390,Asekeyevo,RU,2020-04-04 19:30:33,53.57,52.8,37.4,76,3,6.02,clear sky,0.0,0.0
391,Santo Antonio Da Platina,BR,2020-04-04 19:30:33,-23.3,-50.08,70.32,54,0,2.3,clear sky,0.0,0.0
392,Chaihe,CN,2020-04-04 19:30:34,44.77,129.7,26.15,85,20,7.2,few clouds,0.0,0.0
393,Beringovskiy,RU,2020-04-04 19:30:35,63.05,179.32,7.95,94,100,27.51,light snow,0.0,0.042519685039370085
394,Lorengau,PG,2020-04-04 19:30:36,-2.02,147.27,81.54,79,33,3.89,light rain,0.018503937007874015,0.0
395,Heihe,CN,2020-04-04 19:30:36,50.24,127.49,19.4,62,0,2.24,clear sky,0.0,0.0
396,Nikki,BJ,2020-04-04 19:30:37,9.94,3.21,86.79,42,91,14.54,light rain,0.010629921259842521,0.0
397,Tambun,ID,2020-04-04 19:30:38,-6.26,107.07,80.6,83,40,3.36,haze,0.0,0.0
398,Frontignan,FR,2020-04-04 19:30:05,43.45,3.75,55.0,66,0,2.24,clear sky,0.0,0.0
399,Conselheiro Pena,BR,2020-04-04 19:30:39,-19.17,-41.47,75.52,83,56,8.39,light rain,0.11141732283464569,0.0
400,Atar,MR,2020-04-04 19:30:39,20.52,-13.05,78.3,16,0,6.82,clear sky,0.0,0.0
401,Sabang,ID,2020-04-04 19:30:40,5.89,95.32,83.12,74,30,11.3,scattered clouds,0.0,0.0
402,La Ronge,CA,2020-04-04 19:30:41,55.1,-105.28,19.4,37,5,3.36,clear sky,0.0,0.0
403,Luganville,VU,2020-04-04 19:30:42,-15.53,167.17,77.0,94,90,21.92,light intensity shower rain,0.0,0.0
404,Olafsvik,IS,2020-04-04 19:30:43,64.89,-23.71,25.2,93,100,49.57,overcast clouds,0.0,0.0
405,Cienfuegos,CU,2020-04-04 19:30:43,22.15,-80.44,86.0,48,40,10.29,scattered clouds,0.0,0.0
406,Luderitz,NA,2020-04-04 19:30:44,-26.65,15.16,60.8,87,74,8.05,broken clouds,0.0,0.0
407,Avera,US,2020-04-04 19:30:44,33.19,-82.53,79.0,28,1,3.36,clear sky,0.0,0.0
408,Luziania,BR,2020-04-04 19:30:03,-16.25,-47.95,86.0,48,40,10.29,scattered clouds,0.0,0.0
409,Longyearbyen,SJ,2020-04-04 19:30:45,78.22,15.64,3.2,71,20,10.29,few clouds,0.0,0.0
410,Kabo,CF,2020-04-04 19:30:46,7.7,18.63,85.28,40,43,4.7,scattered clouds,0.0,0.0
411,Lamu,KE,2020-04-04 19:30:47,-2.27,40.9,82.24,76,80,7.7,light rain,0.005511811023622048,0.0
412,Sao Joao Da Barra,BR,2020-04-04 19:30:48,-21.64,-41.05,82.4,58,76,10.29,broken clouds,0.0,0.0
413,Yichun,CN,2020-04-04 19:30:49,47.7,128.9,21.02,93,0,2.39,clear sky,0.0,0.0
414,Bartlesville,US,2020-04-04 19:30:49,36.75,-95.98,41.0,80,90,6.93,overcast clouds,0.0,0.0
415,Almoradi,ES,2020-04-04 19:30:50,38.11,-0.79,59.0,77,40,5.82,scattered clouds,0.0,0.0
416,Sao Gabriel Da Cachoeira,BR,2020-04-04 19:30:51,-0.13,-67.09,88.99,63,94,0.54,light rain,0.012598425196850395,0.0
417,Pauini,BR,2020-04-04 19:30:51,-7.71,-66.98,82.2,88,99,2.53,moderate rain,0.13976377952755906,0.0
418,Miram Shah,PK,2020-04-04 19:30:52,33.01,70.07,60.39,46,52,4.74,light rain,0.015748031496062995,0.0
419,Benjamin Constant,BR,2020-04-04 19:30:52,-4.38,-70.03,89.6,70,40,4.7,scattered clouds,0.0,0.0
420,Tiarei,PF,2020-04-04 19:30:53,-17.53,-149.33,87.8,66,2,3.36,clear sky,0.0,0.0
421,Peleduy,RU,2020-04-04 19:30:53,59.63,112.74,14.52,93,15,5.66,few clouds,0.0,0.0
422,Naze,JP,2020-04-04 19:30:54,28.37,129.48,64.4,63,20,14.99,few clouds,0.0,0.0
423,Makat,KZ,2020-04-04 19:30:54,47.65,53.35,47.41,53,0,8.97,clear sky,0.0,0.0
424,Tuatapere,NZ,2020-04-04 19:30:55,-46.13,167.68,50.0,86,95,1.99,overcast clouds,0.0,0.0
425,Iracoubo,GF,2020-04-04 19:30:56,5.48,-53.2,81.1,79,70,13.69,broken clouds,0.0,0.0
426,San Lawrenz,MT,2020-04-04 19:30:56,36.06,14.2,57.99,76,20,16.11,few clouds,0.0,0.0
427,Kargasok,RU,2020-04-04 19:30:58,59.06,80.86,27.43,97,2,9.33,clear sky,0.0,0.0
428,Nueve De Julio,AR,2020-04-04 19:30:58,-35.44,-60.88,71.78,65,1,5.75,clear sky,0.0,0.0
429,Puerto Ayacucho,VE,2020-04-04 19:30:59,5.66,-67.62,84.2,66,75,3.98,thunderstorm,0.0,0.0
430,Tranas,SE,2020-04-04 19:31:00,58.04,14.98,42.8,51,28,3.36,scattered clouds,0.0,0.0
431,Savannah Bight,HN,2020-04-04 19:31:01,16.45,-85.85,81.12,74,3,17.98,clear sky,0.0,0.0
432,Mandalgovi,MN,2020-04-04 19:31:01,45.76,106.27,38.34,30,0,3.98,clear sky,0.0,0.0
433,Ugoofaaru,MV,2020-04-04 19:31:02,5.67,73.0,83.8,65,86,4.76,overcast clouds,0.0,0.0
434,San-Pedro,CI,2020-04-04 19:27:16,4.75,-6.64,84.85,73,39,7.29,scattered clouds,0.0,0.0
435,Porbandar,IN,2020-04-04 19:31:03,21.64,69.61,77.05,73,0,10.18,clear sky,0.0,0.0
436,Manono,CD,2020-04-04 19:31:03,-7.3,27.42,70.27,76,1,1.68,clear sky,0.0,0.0
437,Katherine,AU,2020-04-04 19:31:04,-14.47,132.27,78.8,74,90,5.82,overcast clouds,0.0,0.0
438,Oktyabrskoye,RU,2020-04-04 19:31:05,43.06,44.74,44.38,50,8,4.32,clear sky,0.0,0.0
439,Sechura,PE,2020-04-04 19:31:05,-5.56,-80.82,79.7,63,55,14.92,broken clouds,0.0,0.0
440,Yebaishou,CN,2020-04-04 19:31:07,41.4,119.64,33.57,50,0,3.13,clear sky,0.0,0.0
441,Hendek,TR,2020-04-04 19:31:07,40.8,30.75,50.0,87,75,6.93,broken clouds,0.0,0.0
442,Asau,RO,2020-04-04 19:31:08,46.43,26.4,45.0,56,82,8.05,broken clouds,0.0,0.0
443,Taltal,CL,2020-04-04 19:31:09,-25.4,-70.48,69.26,64,22,5.28,few clouds,0.0,0.0
444,Cap Malheureux,MU,2020-04-04 19:31:09,-19.98,57.61,78.8,83,40,10.29,shower rain,0.0,0.0
445,Puerto Leguizamo,CO,2020-04-04 19:31:10,-0.19,-74.78,87.66,59,65,2.13,light rain,0.04448818897637795,0.0
446,Fuerte,PH,2020-04-04 19:31:11,17.54,120.36,77.16,76,6,4.83,clear sky,0.0,0.0
447,Potosi,BO,2020-04-04 19:31:11,-19.58,-65.75,45.79,25,72,2.21,moderate rain,0.24645669291338584,0.0
448,El Astillero,ES,2020-04-04 19:31:12,43.4,-3.82,69.8,37,100,5.82,overcast clouds,0.0,0.0
449,Kashi,CN,2020-04-04 19:31:12,39.45,75.98,53.6,27,0,8.95,clear sky,0.0,0.0
450,Murdochville,CA,2020-04-04 19:31:13,48.96,-65.5,30.36,82,100,3.89,light snow,0.0,0.004724409448818898
451,Gunnedah,AU,2020-04-04 19:31:13,-30.98,150.25,48.2,100,0,2.24,clear sky,0.0,0.0
452,Parsabad,IR,2020-04-04 19:27:06,39.65,47.92,48.2,100,90,4.7,light intensity drizzle,0.0,0.0
453,Ararangua,BR,2020-04-04 19:31:14,-28.93,-49.49,68.23,70,4,5.01,clear sky,0.0,0.0
454,Kathmandu,NP,2020-04-04 19:28:49,27.72,85.32,57.2,67,20,3.36,few clouds,0.0,0.0
455,Ardea,IT,2020-04-04 19:31:16,41.61,12.51,61.0,44,5,10.29,clear sky,0.0,0.0
456,Tete,MZ,2020-04-04 19:31:16,-16.16,33.59,78.8,57,3,6.93,clear sky,0.0,0.0
457,Anadyr,RU,2020-04-04 19:31:17,64.75,177.48,5.0,84,75,6.71,light snow,0.0,0.0
458,Yerbogachen,RU,2020-04-04 19:27:54,61.28,108.01,16.63,92,11,7.29,few clouds,0.0,0.0
459,Pontianak,ID,2020-04-04 19:31:18,-0.03,109.33,78.15,91,98,5.44,light rain,0.040944881889763786,0.0
460,Huarmey,PE,2020-04-04 19:31:20,-10.07,-78.15,78.73,63,9,8.19,clear sky,0.0,0.0
461,Itarema,BR,2020-04-04 19:31:20,-2.92,-39.92,78.82,87,100,5.17,overcast clouds,0.0,0.0
462,Shache,CN,2020-04-04 19:31:21,38.42,77.24,51.69,25,37,4.23,scattered clouds,0.0,0.0
463,Fort Saint James,CA,2020-04-04 19:31:21,54.43,-124.25,28.49,76,100,2.51,overcast clouds,0.0,0.0
464,Shiraoi,JP,2020-04-04 19:31:22,42.55,141.35,39.99,64,75,5.82,broken clouds,0.0,0.0
465,Krasnoselkup,RU,2020-04-04 19:31:22,65.7,82.47,34.45,90,100,23.2,overcast clouds,0.0,0.0
466,Kawai,JP,2020-04-04 19:31:24,34.23,135.85,48.99,70,90,19.46,overcast clouds,0.0,0.0
467,Sola,VU,2020-04-04 19:31:25,-13.88,167.55,77.0,94,90,32.21,heavy intensity shower rain,0.0,0.0
468,Dalvik,IS,2020-04-04 19:31:25,65.97,-18.53,19.4,85,90,38.03,mist,0.0,0.0
469,Jilib,SO,2020-04-04 19:31:26,0.49,42.79,80.96,74,3,5.53,clear sky,0.0,0.0
470,Chifeng,CN,2020-04-04 19:31:26,42.27,118.96,34.95,43,0,3.71,clear sky,0.0,0.0
471,Lyubim,RU,2020-04-04 19:31:27,58.36,40.68,30.92,91,0,5.28,clear sky,0.0,0.0
472,Myre,NO,2020-04-04 19:31:27,69.1,15.95,26.6,53,100,16.11,light snow,0.0,0.03149606299212599
473,Cayenne,GF,2020-04-04 19:29:47,4.93,-52.33,87.8,66,20,13.87,few clouds,0.0,0.0
474,Orlik,RU,2020-04-04 19:31:28,52.52,99.83,25.84,62,100,4.32,light snow,0.0,0.03858267716535433
475,Trairi,BR,2020-04-04 19:31:29,-3.28,-39.27,80.65,84,100,7.2,light rain,0.029921259842519688,0.0
476,Kyabe,TD,2020-04-04 19:31:30,9.45,18.94,88.95,26,99,0.87,overcast clouds,0.0,0.0
477,Vila Velha,BR,2020-04-04 19:30:50,-20.33,-40.29,79.0,73,75,8.05,broken clouds,0.0,0.0
478,Kurilsk,RU,2020-04-04 19:31:31,45.23,147.88,35.83,90,45,15.97,scattered clouds,0.0,0.0
479,Ciparay,ID,2020-04-04 19:31:31,-7.42,108.47,76.68,87,76,1.59,light rain,0.022440944881889763,0.0
480,Engels,RU,2020-04-04 19:31:32,51.5,46.12,45.68,65,50,8.72,scattered clouds,0.0,0.0
481,Muravlenko,RU,2020-04-04 19:31:32,63.79,74.52,33.89,90,100,18.45,overcast clouds,0.0,0.0
482,Khovu-Aksy,RU,2020-04-04 19:31:33,51.13,93.6,26.46,65,100,1.32,overcast clouds,0.0,0.0
483,Okhotsk,RU,2020-04-04 19:31:33,59.38,143.3,10.45,91,36,6.33,scattered clouds,0.0,0.0
484,Xiaoshi,CN,2020-04-04 19:31:34,41.3,124.12,24.8,49,0,2.24,clear sky,0.0,0.0
485,Sao Raimundo Nonato,BR,2020-04-04 19:31:35,-9.02,-42.7,79.02,74,100,0.96,light rain,0.022047244094488192,0.0
486,Havre-Saint-Pierre,CA,2020-04-04 19:31:35,50.23,-63.6,32.0,95,90,5.82,overcast clouds,0.0,0.0
487,Bridlington,GB,2020-04-04 19:31:36,54.08,-0.19,54.0,62,100,4.7,overcast clouds,0.0,0.0
488,Kizukuri,JP,2020-04-04 19:31:36,40.81,140.39,39.0,77,48,5.99,scattered clouds,0.0,0.0
489,Koungou,YT,2020-04-04 19:31:37,-12.73,45.2,80.6,78,11,2.24,few clouds,0.0,0.0
490,Ratnagiri,IN,2020-04-04 19:31:37,16.98,73.3,76.35,81,2,6.67,clear sky,0.0,0.0
491,Svetlaya,RU,2020-04-04 19:31:38,46.54,138.33,29.61,97,100,33.35,snow,0.0,0.28346456692913385
492,Natal,BR,2020-04-04 19:31:39,-5.79,-35.21,84.2,79,40,11.41,scattered clouds,0.0,0.0
493,Virginia Beach,US,2020-04-04 19:31:39,36.85,-75.98,57.2,76,90,11.41,overcast clouds,0.0,0.0
494,Hovd,MN,2020-04-04 19:31:40,48.01,91.64,34.48,39,0,4.16,clear sky,0.0,0.0
495,Havoysund,NO,2020-04-04 19:31:41,71.0,24.66,19.4,85,99,8.05,overcast clouds,0.0,0.0
496,Tunkas,MX,2020-04-04 19:31:42,20.9,-88.75,96.8,28,20,9.17,few clouds,0.0,0.0
497,Pasighat,IN,2020-04-04 19:31:44,28.07,95.33,67.24,49,60,4.81,broken clouds,0.0,0.0
498,Alekseyevsk,RU,2020-04-04 19:31:44,57.84,108.35,19.27,93,0,1.95,clear sky,0.0,0.0
499,Rocha,UY,2020-04-04 19:31:45,-34.48,-54.33,63.82,70,9,5.73,clear sky,0.0,0.0
500,Roccastrada,IT,2020-04-04 19:31:45,43.01,11.17,62.01,56,0,13.87,clear sky,0.0,0.0
501,Khromtau,KZ,2020-04-04 19:31:46,50.25,58.43,37.31,83,100,16.93,light rain,0.004724409448818898,0.0
502,Krivyanskaya,RU,2020-04-04 19:31:46,47.4,40.17,48.99,39,100,11.18,overcast clouds,0.0,0.0
503,Tocopilla,CL,2020-04-04 19:31:47,-22.09,-70.2,80.04,37,90,4.25,overcast clouds,0.0,0.0
504,Ormara,PK,2020-04-04 19:31:48,25.21,64.64,76.3,74,0,9.19,clear sky,0.0,0.0
505,Kropotkin,RU,2020-04-04 19:29:24,45.44,40.58,51.76,62,25,5.01,scattered clouds,0.0,0.0
506,Coihaique,CL,2020-04-04 19:31:49,-45.58,-72.07,50.0,66,90,4.7,shower rain,0.0,0.0
507,Malayal,PH,2020-04-04 19:31:49,7.21,121.94,77.0,94,20,3.42,few clouds,0.0,0.0
508,Birin,NP,2020-04-04 19:31:50,26.89,88.07,54.1,22,0,5.14,clear sky,0.0,0.0
509,Buribay,RU,2020-04-04 19:31:50,51.96,58.16,36.9,84,96,10.94,overcast clouds,0.0,0.0
510,Never,FR,2020-04-04 19:31:51,46.99,3.16,60.8,38,0,5.82,clear sky,0.0,0.0
511,Lavaltrie,CA,2020-04-04 19:27:04,45.88,-73.28,54.0,53,1,9.17,clear sky,0.0,0.0
512,Ibia,BR,2020-04-04 19:31:52,-19.48,-46.54,71.87,69,3,5.19,light rain,0.01141732283464567,0.0
513,Tala,EG,2020-04-04 19:31:52,30.68,30.94,72.82,27,51,11.16,broken clouds,0.0,0.0
514,Bichura,RU,2020-04-04 19:31:53,50.59,107.6,36.82,65,86,3.89,overcast clouds,0.0,0.0
515,Pustoshka,RU,2020-04-04 19:31:54,56.34,29.37,34.3,81,82,7.76,broken clouds,0.0,0.0
516,Mayenne,FR,2020-04-04 19:31:54,48.33,-0.67,53.6,58,0,6.93,clear sky,0.0,0.0
517,Carmarthen,GB,2020-04-04 19:31:55,51.86,-4.31,55.0,62,2,3.0,clear sky,0.0,0.0
518,Angoram,PG,2020-04-04 19:31:55,-4.06,144.07,73.92,97,48,1.61,scattered clouds,0.0,0.0
519,Awbari,LY,2020-04-04 19:31:56,26.59,12.78,67.51,20,0,7.27,clear sky,0.0,0.0
520,Soyo,AO,2020-04-04 19:31:57,-6.13,12.37,82.11,87,83,8.25,light rain,0.01653543307086614,0.0
521,Pandan,PH,2020-04-04 19:31:58,14.05,124.17,79.99,77,10,8.55,light rain,0.005511811023622048,0.0
522,Plerin,FR,2020-04-04 19:30:05,48.54,-2.78,59.0,47,0,6.93,clear sky,0.0,0.0
523,Shaunavon,CA,2020-04-04 19:31:59,49.65,-108.42,27.61,72,92,12.77,overcast clouds,0.0,0.0
524,Pochutla,MX,2020-04-04 19:31:59,15.74,-96.47,91.99,29,75,8.05,broken clouds,0.0,0.0
525,Byron Bay,AU,2020-04-04 19:32:00,-28.65,153.62,62.6,93,0,8.68,clear sky,0.0,0.0
526,Brae,GB,2020-04-04 19:32:00,60.4,-1.35,44.6,87,100,13.87,light rain,0.009055118110236222,0.0
527,Mbaiki,CF,2020-04-04 19:32:01,3.87,17.99,75.2,64,40,0.78,scattered clouds,0.0,0.0
528,Xacmaz,AZ,2020-04-04 19:32:02,41.46,48.81,47.07,85,100,2.19,light rain,0.041732283464566935,0.0
529,Santo Tomas,PH,2020-04-04 19:32:02,14.11,121.14,79.0,78,20,5.82,few clouds,0.0,0.0
530,Dunedin,NZ,2020-04-04 19:32:03,-45.87,170.5,55.99,87,95,1.99,overcast clouds,0.0,0.0
531,Ormoz,SI,2020-04-04 19:32:04,46.41,16.15,46.0,56,0,4.7,clear sky,0.0,0.0
532,Wageningen,NL,2020-04-04 19:30:33,51.97,5.67,54.0,49,20,2.24,few clouds,0.0,0.0
533,Nelson Bay,AU,2020-04-04 19:32:05,-32.72,152.15,59.0,71,0,12.75,clear sky,0.0,0.0
534,Estelle,US,2020-04-04 19:32:05,29.85,-90.11,82.4,44,1,9.17,clear sky,0.0,0.0
535,Calabar,NG,2020-04-04 19:32:06,4.95,8.32,78.13,82,100,2.59,overcast clouds,0.0,0.0
536,Lubango,AO,2020-04-04 19:32:07,-14.92,13.49,60.39,55,17,1.9,light rain,0.009448818897637795,0.0
537,Chupaca,PE,2020-04-04 19:32:07,-12.07,-75.28,62.37,21,78,4.14,light rain,0.09212598425196851,0.0
538,Griffith,US,2020-04-04 19:30:28,41.53,-87.42,44.6,86,90,10.29,overcast clouds,0.0,0.0
539,Esna,EG,2020-04-04 19:32:08,25.29,32.55,82.4,24,0,1.54,clear sky,0.0,0.0
540,Ardakan,IR,2020-04-04 19:32:09,32.31,54.02,64.4,17,20,4.7,few clouds,0.0,0.0
541,Ostrovnoy,RU,2020-04-04 19:32:09,68.05,39.51,17.56,92,10,23.09,clear sky,0.0,0.0
542,Takoradi,GH,2020-04-04 19:32:10,4.88,-1.76,81.46,85,81,6.98,light rain,0.010236220472440946,0.0
543,San Alberto,CO,2020-04-04 19:32:10,7.76,-73.39,90.18,52,44,2.19,light rain,0.05472440944881889,0.0
544,Glazov,RU,2020-04-04 19:32:12,58.14,52.66,33.15,88,85,4.56,overcast clouds,0.0,0.0
